[
  {
    "id": "ZR-001",
    "nombre": "Zona Huachicoleo Puebla-Tlaxcala",
    "tipo": "Alto Riesgo",
    "centro": {
      "lat": 19.25,
      "lng": -98.35
    },
    "radio_km": 15,
    "incidentes_30dias": 1,
    "recomendacion": "Evitar tránsito nocturno",
    "activa": true
  },
  {
    "id": "ZR-002",
    "nombre": "Tramo Peligroso Autopista del Sol",
    "tipo": "Alto Riesgo",
    "centro": {
      "lat": 18.5,
      "lng": -99.5
    },
    "radio_km": 20,
    "incidentes_30dias": 4,
    "recomendacion": "Evitar tránsito nocturno",
    "activa": true
  },
  {
    "id": "ZR-003",
    "nombre": "Zona Industrial Querétaro",
    "tipo": "Zona Segura",
    "centro": {
      "lat": 20.62,
      "lng": -100.41
    },
    "radio_km": 5,
    "incidentes_30dias": 1,
    "recomendacion": "Zona monitoreada",
    "activa": true
  },
  {
    "id": "ZR-004",
    "nombre": "CEDIS Bimbo CDMX Norte",
    "tipo": "Zona Segura",
    "centro": {
      "lat": 19.53,
      "lng": -99.18
    },
    "radio_km": 2,
    "incidentes_30dias": 2,
    "recomendacion": "Zona monitoreada",
    "activa": true
  },
  {
    "id": "ZR-005",
    "nombre": "Caseta Palmillas",
    "tipo": "Control",
    "centro": {
      "lat": 20.35,
      "lng": -100.15
    },
    "radio_km": 1,
    "incidentes_30dias": 0,
    "recomendacion": "Zona monitoreada",
    "activa": true
  },
  {
    "id": "ZR-006",
    "nombre": "Tramo Inseguro Matehuala-SLP",
    "tipo": "Alto Riesgo",
    "centro": {
      "lat": 23.65,
      "lng": -100.65
    },
    "radio_km": 25,
    "incidentes_30dias": 15,
    "recomendacion": "Evitar tránsito nocturno",
    "activa": true
  },
  {
    "id": "ZR-007",
    "nombre": "CEDIS Barcel Toluca",
    "tipo": "Zona Segura",
    "centro": {
      "lat": 19.28,
      "lng": -99.68
    },
    "radio_km": 3,
    "incidentes_30dias": 2,
    "recomendacion": "Zona monitoreada",
    "activa": true
  },
  {
    "id": "ZR-008",
    "nombre": "Puerto Interior León",
    "tipo": "Zona Segura",
    "centro": {
      "lat": 21.08,
      "lng": -101.62
    },
    "radio_km": 4,
    "incidentes_30dias": 0,
    "recomendacion": "Zona monitoreada",
    "activa": true
  }
]