[
  {
    "id": "SZ-001",
    "nombre": "Zona Riesgo Gómez Palacio",
    "tipo": "alto_riesgo",
    "centro": {
      "lat": 25.54,
      "lng": -103.4
    },
    "radio_km": 5,
    "incidentes_30dias": 8,
    "recomendacion": "Evitar tránsito nocturno. Escoltas obligatorias.",
    "activa": true
  },
  {
    "id": "SZ-002",
    "nombre": "Zona Riesgo Carretera 57",
    "tipo": "alto_riesgo",
    "centro": {
      "lat": 23.65,
      "lng": -100.65
    },
    "radio_km": 15,
    "incidentes_30dias": 5,
    "recomendacion": "Convoy mínimo 2 unidades. Comunicación constante.",
    "activa": true
  },
  {
    "id": "SZ-003",
    "nombre": "Zona Riesgo Puebla Oriente",
    "tipo": "medio_riesgo",
    "centro": {
      "lat": 19.1,
      "lng": -98.1
    },
    "radio_km": 8,
    "incidentes_30dias": 3,
    "recomendacion": "Precaución en horario nocturno.",
    "activa": true
  },
  {
    "id": "SZ-004",
    "nombre": "Zona Riesgo Libramiento Norte GDL",
    "tipo": "medio_riesgo",
    "centro": {
      "lat": 20.75,
      "lng": -103.3
    },
    "radio_km": 6,
    "incidentes_30dias": 4,
    "recomendacion": "Velocidad reducida. Zona de asaltos.",
    "activa": true
  },
  {
    "id": "SZ-005",
    "nombre": "Zona Riesgo Arco Norte",
    "tipo": "medio_riesgo",
    "centro": {
      "lat": 19.8,
      "lng": -99.4
    },
    "radio_km": 10,
    "incidentes_30dias": 2,
    "recomendacion": "Paradas solo en zonas autorizadas.",
    "activa": true
  },
  {
    "id": "SZ-006",
    "nombre": "Zona Riesgo Cd. Valles",
    "tipo": "alto_riesgo",
    "centro": {
      "lat": 21.99,
      "lng": -99.01
    },
    "radio_km": 12,
    "incidentes_30dias": 6,
    "recomendacion": "No transitar de noche. Reportar presencia sospechosa.",
    "activa": true
  },
  {
    "id": "SZ-007",
    "nombre": "Zona Riesgo Saltillo-MTY",
    "tipo": "medio_riesgo",
    "centro": {
      "lat": 25.45,
      "lng": -100.7
    },
    "radio_km": 8,
    "incidentes_30dias": 3,
    "recomendacion": "Convoy recomendado tramo nocturno.",
    "activa": true
  },
  {
    "id": "SZ-008",
    "nombre": "Zona Riesgo Durango",
    "tipo": "alto_riesgo",
    "centro": {
      "lat": 24.02,
      "lng": -104.65
    },
    "radio_km": 20,
    "incidentes_30dias": 7,
    "recomendacion": "Ruta alternativa preferida. Escoltas en caso necesario.",
    "activa": true
  },
  {
    "id": "SZ-009",
    "nombre": "Zona Riesgo Nuevo Laredo",
    "tipo": "alto_riesgo",
    "centro": {
      "lat": 27.48,
      "lng": -99.52
    },
    "radio_km": 10,
    "incidentes_30dias": 9,
    "recomendacion": "Solo tránsito diurno. Protocolo frontera activo.",
    "activa": true
  },
  {
    "id": "SZ-010",
    "nombre": "Zona Riesgo Texmelucan",
    "tipo": "medio_riesgo",
    "centro": {
      "lat": 19.28,
      "lng": -98.44
    },
    "radio_km": 5,
    "incidentes_30dias": 4,
    "recomendacion": "Robo de combustible frecuente. Monitoreo GPS constante.",
    "activa": true
  }
]