{
  "zonas": [
    {
      "id": "ZS-001",
      "nombre": "CEDIS Bimbo CDMX Norte",
      "tipo": "Planta",
      "lat": 19.413404,
      "lng": -99.142621,
      "servicios": [
        "Vigilancia 24h",
        "Baños"
      ],
      "capacidad_camiones": 22,
      "ocupacion_actual": 16,
      "horario": "24/7",
      "activa": true
    },
    {
      "id": "ZS-002",
      "nombre": "CEDIS Bimbo Monterrey Sur",
      "tipo": "Base",
      "lat": 25.701099,
      "lng": -100.359952,
      "servicios": [
        "Taller",
        "Baños",
        "Combustible"
      ],
      "capacidad_camiones": 58,
      "ocupacion_actual": 22,
      "horario": "24/7",
      "activa": true
    },
    {
      "id": "ZS-003",
      "nombre": "Planta Barcel Lerma",
      "tipo": "Estacionamiento",
      "lat": 20.648698,
      "lng": -103.341807,
      "servicios": [
        "Taller",
        "Descanso",
        "Baños"
      ],
      "capacidad_camiones": 29,
      "ocupacion_actual": 16,
      "horario": "24/7",
      "activa": true
    },
    {
      "id": "ZS-004",
      "nombre": "CEDIS Marinela Guadalajara",
      "tipo": "Estacionamiento",
      "lat": 19.090429,
      "lng": -98.198027,
      "servicios": [
        "Taller",
        "Descanso",
        "Combustible",
        "Vigilancia 24h",
        "Comedor"
      ],
      "capacidad_camiones": 48,
      "ocupacion_actual": 29,
      "horario": "06:00-22:00",
      "activa": true
    },
    {
      "id": "ZS-005",
      "nombre": "Estacionamiento Seguro Querétaro",
      "tipo": "Estacionamiento",
      "lat": 20.625368,
      "lng": -100.416376,
      "servicios": [
        "Vigilancia 24h",
        "Descanso",
        "Comedor",
        "Taller",
        "Baños"
      ],
      "capacidad_camiones": 55,
      "ocupacion_actual": 9,
      "horario": "24/7",
      "activa": true
    },
    {
      "id": "ZS-006",
      "nombre": "Base Operativa Puebla",
      "tipo": "Base",
      "lat": 21.086007,
      "lng": -101.676558,
      "servicios": [
        "Comedor",
        "Taller",
        "Descanso",
        "Vigilancia 24h"
      ],
      "capacidad_camiones": 37,
      "ocupacion_actual": 13,
      "horario": "06:00-22:00",
      "activa": true
    },
    {
      "id": "ZS-007",
      "nombre": "Punto Seguro Arco Norte",
      "tipo": "CEDIS",
      "lat": 19.247,
      "lng": -99.617211,
      "servicios": [
        "Taller",
        "Combustible",
        "Vigilancia 24h",
        "Descanso",
        "Comedor"
      ],
      "capacidad_camiones": 11,
      "ocupacion_actual": 3,
      "horario": "24/7",
      "activa": true
    },
    {
      "id": "ZS-008",
      "nombre": "CEDIS Veracruz Puerto",
      "tipo": "Planta",
      "lat": 25.418639,
      "lng": -101.002888,
      "servicios": [
        "Comedor",
        "Descanso",
        "Taller",
        "Combustible",
        "Vigilancia 24h"
      ],
      "capacidad_camiones": 64,
      "ocupacion_actual": 41,
      "horario": "24/7",
      "activa": true
    }
  ]
}